$GPGGA,205954.000,3037.7039,N,09628.9182,W,2,10,0.87,77.5,M,-23.2,M,0000,0000*6A
$GPGSA,A,3,10,32,25,14,21,31,27,08,18,24,,,1.51,0.87,1.24*0E
$GPGSV,3,1,12,10,63,009,37,32,60,284,42,18,55,074,27,51,52,200,38*7B
$GPGSV,3,2,12,14,47,259,41,21,34,162,37,24,26,048,44,27,17,253,34*7D
$GPGSV,3,3,12,31,15,195,39,08,12,288,42,25,05,127,26,12,03,093,46*7E
$GPRMC,205954.000,A,3037.7039,N,09628.9182,W,0.01,23.55,101117,,,D*4C
$GPGGA,205955.000,3037.7039,N,09628.9182,W,2,10,0.87,77.5,M,-23.2,M,0000,0000*6B
$GPGSA,A,3,10,32,25,14,21,31,27,08,18,24,,,1.51,0.87,1.24*0E
$GPGSV,3,1,12,10,63,009,37,32,60,284,41,18,55,074,27,51,52,200,36*76
$GPGSV,3,2,12,14,47,259,41,21,34,162,37,24,26,048,44,27,17,253,34*7D
$GPGSV,3,3,12,31,15,195,39,08,12,288,42,25,05,127,27,12,03,093,46*7F
$GPRMC,205955.000,A,3037.7039,N,09628.9182,W,0.01,23.55,101117,,,D*4D
$GPGGA,205956.000,3037.7039,N,09628.9182,W,2,10,0.87,77.5,M,-23.2,M,0000,0000*68
$GPGSA,A,3,10,32,25,14,21,31,27,08,18,24,,,1.51,0.87,1.24*0E
$GPGSV,3,1,12,10,63,009,36,32,60,284,41,18,55,074,28,51,52,200,37*79
$GPGSV,3,2,12,14,47,259,41,21,34,162,37,24,26,048,44,27,17,253,34*7D
$GPGSV,3,3,12,31,15,195,39,08,12,288,42,25,05,127,27,12,03,093,46*7F
$GPRMC,205956.000,A,3037.7039,N,09628.9182,W,0.00,23.55,101117,,,D*4F
$GPGGA,205957.000,3037.7039,N,09628.9182,W,2,10,0.87,77.5,M,-23.2,M,0000,0000*69
$GPGSA,A,3,10,32,25,14,21,31,27,08,18,24,,,1.51,0.87,1.24*0E
$GPGSV,3,1,12,10,63,009,29,32,60,284,40,18,55,074,29,51,52,200,36*76
$GPGSV,3,2,12,14,47,259,41,21,34,162,36,24,26,048,44,27,17,253,35*7D
$GPGSV,3,3,12,31,15,195,39,08,12,288,42,25,05,127,27,12,03,093,46*7F
$GPRMC,205957.000,A,3037.7039,N,09628.9182,W,0.00,23.55,101117,,,D*4E
$GPGGA,205958.000,3037.7039,N,09628.9182,W,2,10,0.87,77.5,M,-23.2,M,0000,0000*66
$GPGSA,A,3,10,32,25,14,21,31,27,08,18,24,,,1.51,0.87,1.24*0E
$GPGSV,3,1,12,10,63,009,31,32,60,284,40,18,55,074,29,51,52,200,37*7E
$GPGSV,3,2,12,14,47,259,41,21,34,162,35,24,26,048,44,27,17,253,37*7C
$GPGSV,3,3,12,31,15,195,39,08,12,288,42,25,05,127,27,12,03,093,46*7F
$GPRMC,205958.000,A,3037.7039,N,09628.9182,W,0.01,23.55,101117,,,D*40
$GPGGA,205959.000,3037.7039,N,09628.9182,W,2,10,0.87,77.5,M,-23.2,M,0000,0000*67
$GPGSA,A,3,10,32,25,14,21,31,27,08,18,24,,,1.51,0.87,1.24*0E
$GPGSV,3,1,12,10,63,009,32,32,60,284,40,18,55,074,30,51,52,200,37*75
$GPGSV,3,2,12,14,47,259,41,21,34,162,34,24,26,048,44,27,17,253,38*72
$GPGSV,3,3,12,31,15,195,40,08,12,288,42,25,05,127,27,12,03,093,46*71
$GPRMC,205959.000,A,3037.7039,N,09628.9182,W,0.01,23.55,101117,,,D*41
$GPGGA,210000.000,3037.7039,N,09628.9182,W,2,10,0.87,77.5,M,-23.2,M,0000,0000*66
$GPGSA,A,3,10,32,25,14,21,31,27,08,18,24,,,1.51,0.87,1.24*0E
$GPGSV,3,1,12,10,63,009,33,32,60,284,40,18,55,074,30,51,52,200,38*7B
$GPGSV,3,2,12,14,47,259,41,21,34,162,33,24,26,048,44,27,17,253,38*75
$GPGSV,3,3,12,31,15,195,40,08,12,288,42,25,05,127,27,12,03,093,46*71
$GPRMC,210000.000,A,3037.7039,N,09628.9182,W,0.00,23.55,101117,,,D*41
$GPGGA,210001.000,3037.7039,N,09628.9182,W,2,10,0.87,77.5,M,-23.2,M,0000,0000*67
$GPGSA,A,3,10,32,25,14,21,31,27,08,18,24,,,1.51,0.87,1.24*0E
$GPGSV,3,1,12,10,63,009,35,32,60,284,40,18,55,074,39,51,52,200,37*7B
$GPGSV,3,2,12,14,47,259,41,21,34,162,34,24,26,048,43,27,17,253,38*75
$GPGSV,3,3,12,31,15,195,41,08,12,288,42,25,05,127,27,12,03,093,46*70
$GPRMC,210001.000,A,3037.7039,N,09628.9182,W,0.01,23.55,101117,,,D*41
$GPGGA,210002.000,3037.7039,N,09628.9182,W,2,10,0.87,77.5,M,-23.2,M,0000,0000*64
$GPGSA,A,3,10,32,25,14,21,31,27,08,18,24,,,1.51,0.87,1.24*0E
$GPGSV,3,1,12,10,63,009,35,32,60,284,40,18,55,074,32,51,52,200,38*7F
$GPGSV,3,2,12,14,47,259,41,21,34,162,33,24,26,048,42,27,17,253,38*73
$GPGSV,3,3,12,31,15,195,41,08,12,288,42,25,05,127,26,12,03,093,46*71
$GPRMC,210002.000,A,3037.7039,N,09628.9182,W,0.00,23.55,101117,,,D*43
$GPGGA,210003.000,3037.7039,N,09628.9182,W,2,10,0.87,77.5,M,-23.2,M,0000,0000*65
$GPGSA,A,3,10,32,25,14,21,31,27,08,18,24,,,1.51,0.87,1.24*0E
$GPGSV,3,1,12,10,63,009,36,32,60,284,40,18,55,074,34,51,52,200,39*7B
$GPGSV,3,2,12,14,47,259,40,21,34,162,31,24,26,048,42,27,17,253,38*70
$GPGSV,3,3,12,31,15,195,41,08,12,288,42,25,05,127,26,12,03,093,46*71
$GPRMC,210003.000,A,3037.7039,N,09628.9182,W,0.01,23.55,101117,,,D*43
$GPGGA,210004.000,3037.7039,N,09628.9182,W,2,8,1.11,77.5,M,-23.2,M,0000,0000*55
$GPGSA,A,3,10,32,14,31,27,08,18,24,,,,,1.83,1.11,1.45*0C
$GPGSV,3,1,12,10,63,009,36,32,60,284,39,18,55,074,34,51,52,200,40*7B
$GPGSV,3,2,12,14,47,259,39,21,34,162,,24,26,048,42,27,17,253,39*7D
$GPGSV,3,3,12,31,15,195,41,08,12,288,42,25,05,127,25,12,03,093,46*72
$GPRMC,210004.000,A,3037.7039,N,09628.9182,W,0.02,23.55,101117,,,D*47
$GPGGA,210005.000,3037.7039,N,09628.9182,W,2,8,1.11,77.5,M,-23.2,M,0000,0000*54
$GPGSA,A,3,10,32,14,31,27,08,18,24,,,,,1.83,1.11,1.45*0C
$GPGSV,3,1,12,10,63,009,36,32,60,284,39,18,55,074,35,51,52,200,41*7B
$GPGSV,3,2,12,14,47,259,37,21,34,162,23,24,26,048,41,27,17,253,40*7F
$GPGSV,3,3,12,31,15,195,41,08,12,288,42,25,05,127,24,12,03,093,46*73
$GPRMC,210005.000,A,3037.7039,N,09628.9182,W,0.01,23.55,101117,,,D*45
$GPGGA,210006.000,3037.7039,N,09628.9182,W,2,8,1.11,77.5,M,-23.2,M,0000,0000*57
$GPGSA,A,3,10,32,14,31,27,08,18,24,,,,,1.83,1.11,1.45*0C
$GPGSV,3,1,12,10,63,009,36,32,60,284,39,18,55,074,35,51,52,200,41*7B
$GPGSV,3,2,12,14,47,259,37,21,34,162,23,24,26,048,41,27,17,253,41*7E
$GPGSV,3,3,12,31,15,195,41,08,12,288,42,25,05,127,23,12,03,093,46*74
$GPRMC,210006.000,A,3037.7039,N,09628.9182,W,0.01,23.55,101117,,,D*46
$GPGGA,210007.000,3037.7039,N,09628.9182,W,2,8,1.11,77.5,M,-23.2,M,0000,0000*56
$GPGSA,A,3,10,32,14,31,27,08,18,24,,,,,1.83,1.11,1.45*0C
$GPGSV,3,1,12,10,63,009,35,32,60,284,38,18,55,074,35,51,52,200,41*79
$GPGSV,3,2,12,14,47,259,36,21,34,162,23,24,26,048,41,27,17,253,41*7F
$GPGSV,3,3,12,31,15,195,41,08,12,288,42,25,05,127,23,12,03,093,46*74
$GPRMC,210007.000,A,3037.7039,N,09628.9182,W,0.01,23.55,101117,,,D*47
$GPGGA,210008.000,3037.7039,N,09628.9182,W,2,10,0.87,77.5,M,-23.2,M,0000,0000*6E
$GPGSA,A,3,10,32,25,14,21,31,27,08,18,24,,,1.51,0.87,1.24*0E
$GPGSV,3,1,12,10,63,009,35,32,60,285,38,18,55,074,35,51,52,200,41*78
$GPGSV,3,2,12,14,47,259,36,21,34,162,25,24,26,048,41,27,17,253,41*79
$GPGSV,3,3,12,31,15,195,41,08,12,288,42,25,05,127,24,12,03,093,46*73
$GPRMC,210008.000,A,3037.7039,N,09628.9182,W,0.03,23.55,101117,,,D*4A
$GPGGA,210009.000,3037.7039,N,09628.9182,W,2,9,0.97,77.5,M,-23.2,M,0000,0000*56
$GPGSA,A,3,10,32,25,14,31,27,08,18,24,,,,1.63,0.97,1.30*08
$GPGSV,3,1,12,10,63,009,34,32,60,285,38,18,55,074,34,51,52,200,41*78
$GPGSV,3,2,12,14,47,259,36,21,34,162,20,24,26,048,41,27,17,253,41*7C
$GPGSV,3,3,12,31,15,195,41,08,12,288,42,25,05,127,24,12,03,093,46*73
$GPRMC,210009.000,A,3037.7039,N,09628.9182,W,0.21,23.55,101117,,,D*4B
$GPGGA,210010.000,3037.7039,N,09628.9182,W,2,9,0.97,77.5,M,-23.2,M,0000,0000*5E
$GPGSA,A,3,10,32,25,14,31,27,08,18,24,,,,1.63,0.97,1.30*08
$GPGSV,3,1,12,10,63,009,34,32,60,285,38,18,55,074,34,51,52,200,41*78
$GPGSV,3,2,12,14,47,259,36,21,34,162,19,24,26,048,41,27,17,253,41*76
$GPGSV,3,3,12,31,15,195,42,08,12,288,42,25,05,127,25,12,03,093,46*71
$GPRMC,210010.000,A,3037.7039,N,09628.9182,W,0.30,23.55,101117,,,D*43
$GPGGA,210011.000,3037.7039,N,09628.9182,W,2,8,1.11,77.5,M,-23.2,M,0000,0000*51
$GPGSA,A,3,10,32,14,31,27,08,18,24,,,,,1.83,1.11,1.45*0C
$GPGSV,3,1,12,10,63,009,34,32,60,285,38,18,55,074,35,51,52,200,41*79
$GPGSV,3,2,12,14,47,259,36,21,34,162,14,24,26,048,41,27,17,253,41*7B
$GPGSV,3,3,12,31,15,195,42,08,12,288,43,25,05,127,24,12,03,093,46*71
$GPRMC,210011.000,A,3037.7039,N,09628.9182,W,0.46,23.55,101117,,,D*43
$GPGGA,210012.000,3037.7041,N,09628.9181,W,2,9,0.97,77.5,M,-23.2,M,0000,0000*50
$GPGSA,A,3,10,32,25,14,31,27,08,18,24,,,,1.63,0.97,1.30*08
$GPGSV,3,1,12,10,63,009,34,32,60,285,38,18,55,074,35,51,52,200,41*79
$GPGSV,3,2,12,14,47,259,36,21,34,162,16,24,26,048,41,27,17,253,41*79
$GPGSV,3,3,12,31,15,195,42,08,12,288,43,25,05,127,24,12,03,093,46*71
$GPRMC,210012.000,A,3037.7041,N,09628.9181,W,1.14,23.55,101117,,,D*4A
$GPGGA,210013.000,3037.7044,N,09628.9179,W,2,8,1.11,77.5,M,-23.2,M,0000,0000*5D
$GPGSA,A,3,10,32,14,31,27,08,18,24,,,,,1.83,1.11,1.45*0C
$GPGSV,3,1,12,10,63,009,34,32,60,285,38,18,55,074,35,51,52,200,40*78
$GPGSV,3,2,12,14,47,259,36,21,34,162,16,24,26,048,41,27,17,253,41*79
$GPGSV,3,3,12,31,15,195,42,08,12,288,43,25,05,127,22,12,03,093,46*77
$GPRMC,210013.000,A,3037.7044,N,09628.9179,W,1.46,1.01,101117,,,D*7F
$GPGGA,210014.000,3037.7048,N,09628.9177,W,2,8,1.11,77.4,M,-23.2,M,0000,0000*59
$GPGSA,A,3,10,32,14,31,27,08,18,24,,,,,1.83,1.11,1.45*0C
$GPGSV,3,1,12,10,63,009,33,32,60,285,39,18,55,074,35,51,52,200,39*70
$GPGSV,3,2,12,14,47,259,36,21,34,162,17,24,26,048,41,27,17,253,41*78
$GPGSV,3,3,12,31,15,195,42,08,12,288,43,25,05,127,22,12,03,093,46*77
$GPRMC,210014.000,A,3037.7048,N,09628.9177,W,1.70,0.19,101117,,,D*77
$GPGGA,210015.000,3037.7053,N,09628.9176,W,2,9,0.94,77.4,M,-23.2,M,0000,0000*5E
$GPGSA,A,3,10,32,14,21,31,27,08,18,24,,,,1.73,0.94,1.45*0C
$GPGSV,3,1,12,10,63,009,34,32,60,285,38,18,55,074,36,51,52,200,39*75
$GPGSV,3,2,12,14,47,259,35,21,34,162,26,24,26,048,41,27,17,253,40*78
$GPGSV,3,3,12,31,15,195,42,08,12,288,43,25,05,127,22,12,03,093,45*74
$GPRMC,210015.000,A,3037.7053,N,09628.9176,W,2.00,359.91,101117,,,D*76
$GPGGA,210016.000,3037.7059,N,09628.9173,W,2,9,0.94,77.4,M,-23.2,M,0000,0000*52
$GPGSA,A,3,10,32,14,21,31,27,08,18,24,,,,1.73,0.94,1.45*0C
$GPGSV,3,1,12,10,63,009,35,32,60,285,37,18,55,074,36,51,52,200,39*7B
$GPGSV,3,2,12,14,47,259,34,21,34,162,26,24,26,048,40,27,17,253,40*78
$GPGSV,3,3,12,31,15,195,42,08,12,288,43,25,05,127,22,12,03,093,44*75
$GPRMC,210016.000,A,3037.7059,N,09628.9173,W,2.25,359.68,101117,,,D*7B
$GPGGA,210017.000,3037.7066,N,09628.9171,W,2,10,0.86,77.1,M,-23.2,M,0000,0000*63
$GPGSA,A,3,10,32,25,14,21,31,27,08,18,24,,,1.51,0.86,1.24*0F
$GPGSV,3,1,12,10,63,009,35,32,60,285,39,18,55,074,34,51,52,200,41*78
$GPGSV,3,2,12,14,47,259,33,21,34,162,26,24,26,048,39,27,17,253,40*71
$GPGSV,3,3,12,31,15,195,42,08,12,288,43,25,05,127,23,12,03,093,44*74
$GPRMC,210017.000,A,3037.7066,N,09628.9171,W,2.27,359.37,101117,,,D*7C
$GPGGA,210018.000,3037.7072,N,09628.9171,W,2,9,0.94,76.9,M,-23.2,M,0000,0000*5B
$GPGSA,A,3,10,32,14,21,31,27,08,18,24,,,,1.73,0.94,1.45*0C
$GPGSV,3,1,12,10,63,009,36,32,60,285,41,18,55,074,34,51,52,200,42*77
$GPGSV,3,2,12,14,47,259,34,21,34,162,26,24,26,048,39,27,17,253,40*76
$GPGSV,3,3,12,31,15,195,42,08,12,288,44,25,05,127,23,12,03,093,44*73
$GPRMC,210018.000,A,3037.7072,N,09628.9171,W,1.87,359.31,101117,,,D*79
$GPGGA,210019.000,3037.7076,N,09628.9170,W,2,8,1.11,76.7,M,-23.2,M,0000,0000*5C
$GPGSA,A,3,10,32,14,31,27,08,18,24,,,,,1.83,1.11,1.45*0C
$GPGSV,3,1,12,10,63,009,37,32,60,285,41,18,55,074,34,51,52,200,43*77
$GPGSV,3,2,12,14,47,259,34,21,34,162,24,24,26,048,38,27,17,253,40*75
$GPGSV,3,3,12,31,15,195,42,08,12,288,44,25,05,127,23,12,03,093,44*73
$GPRMC,210019.000,A,3037.7076,N,09628.9170,W,1.36,359.48,101117,,,D*79
$GPGGA,210020.000,3037.7079,N,09628.9169,W,2,9,0.97,76.7,M,-23.2,M,0000,0000*5F
$GPGSA,A,3,10,32,25,14,31,27,08,18,24,,,,1.63,0.97,1.30*08
$GPGSV,3,1,12,10,63,009,35,32,60,285,40,18,55,074,35,51,52,200,43*75
$GPGSV,3,2,12,14,47,259,33,21,34,162,24,24,26,048,37,27,17,253,41*7C
$GPGSV,3,3,12,31,15,195,42,08,12,288,43,25,05,127,23,12,03,093,45*75
$GPRMC,210020.000,A,3037.7079,N,09628.9169,W,0.11,359.83,101117,,,D*77
$GPGGA,210021.000,3037.7080,N,09628.9168,W,2,8,1.08,76.7,M,-23.2,M,0000,0000*5F
$GPGSA,A,3,10,32,14,31,27,08,18,24,,,,,1.36,1.08,0.82*00
$GPGSV,3,1,12,10,63,009,33,32,60,285,39,18,55,074,35,51,52,200,43*7D
$GPGSV,3,2,12,14,47,259,32,21,34,162,23,24,26,048,37,27,17,253,41*7A
$GPGSV,3,3,12,31,15,195,42,08,12,288,42,25,05,127,22,12,03,093,45*75
$GPRMC,210021.000,A,3037.7080,N,09628.9168,W,0.06,359.83,101117,,,D*77
$GPGGA,210022.000,3037.7080,N,09628.9168,W,2,7,1.11,76.6,M,-23.2,M,0000,0000*5A
$GPGSA,A,3,32,14,31,27,08,18,24,,,,,,1.39,1.11,0.84*00
$GPGSV,3,1,12,10,63,009,26,32,60,285,38,18,55,074,35,51,52,200,43*78
$GPGSV,3,2,12,14,47,260,32,21,34,162,22,24,26,048,38,27,17,253,41*7E
$GPGSV,3,3,12,31,15,195,42,08,12,288,42,25,05,127,21,12,03,093,45*76
$GPRMC,210022.000,A,3037.7080,N,09628.9168,W,0.03,359.91,101117,,,D*72
$GPGGA,210023.000,3037.7080,N,09628.9167,W,2,7,1.13,76.6,M,-23.2,M,0000,0000*56
$GPGSA,A,3,32,14,31,27,08,18,24,,,,,,1.92,1.13,1.55*0E
$GPGSV,3,1,12,10,63,009,26,32,60,285,38,18,55,074,35,51,52,200,43*78
$GPGSV,3,2,12,14,47,260,32,21,34,162,20,24,26,048,38,27,17,253,41*7C
$GPGSV,3,3,12,31,15,195,42,08,12,288,42,25,05,127,20,12,03,093,45*77
$GPRMC,210023.000,A,3037.7080,N,09628.9167,W,0.03,359.91,101117,,,D*7C
$GPGGA,210024.000,3037.7081,N,09628.9167,W,2,7,1.13,76.6,M,-23.2,M,0000,0000*50
$GPGSA,A,3,32,14,31,27,08,18,24,,,,,,1.92,1.13,1.55*0E
$GPGSV,3,1,12,10,63,009,25,32,60,285,38,18,55,074,35,51,52,200,43*7B
$GPGSV,3,2,12,14,47,260,32,21,34,162,20,24,26,048,38,27,17,253,41*7C
$GPGSV,3,3,12,31,15,195,42,08,12,288,42,25,05,127,19,12,03,093,45*7D
$GPRMC,210024.000,A,3037.7081,N,09628.9167,W,0.09,359.91,101117,,,D*70
$GPGGA,210025.000,3037.7081,N,09628.9167,W,2,8,1.11,76.6,M,-23.2,M,0000,0000*5C
$GPGSA,A,3,10,32,14,31,27,08,18,24,,,,,1.83,1.11,1.45*0C
$GPGSV,3,1,12,10,63,009,26,32,60,285,38,18,55,074,34,51,52,200,43*79
$GPGSV,3,2,12,14,47,260,32,21,34,162,19,24,26,048,38,27,17,253,41*76
$GPGSV,3,3,12,31,15,195,43,08,12,288,42,25,05,127,18,12,03,093,45*7D
$GPRMC,210025.000,A,3037.7081,N,09628.9167,W,0.30,0.54,101117,,,D*7D
$GPGGA,210026.000,3037.7082,N,09628.9167,W,2,7,1.13,76.5,M,-23.2,M,0000,0000*52
$GPGSA,A,3,32,14,31,27,08,18,24,,,,,,1.92,1.13,1.55*0E
$GPGSV,3,1,12,10,63,009,26,32,60,285,38,18,54,075,33,51,52,200,43*7E
$GPGSV,3,2,12,14,47,260,32,21,34,162,20,24,26,048,38,27,17,253,41*7C
$GPGSV,3,3,12,31,15,195,43,08,12,288,42,25,05,127,18,12,03,093,45*7D
$GPRMC,210026.000,A,3037.7082,N,09628.9167,W,0.57,0.90,101117,,,D*74
$GPGGA,210027.000,3037.7083,N,09628.9167,W,2,8,1.11,76.5,M,-23.2,M,0000,0000*5F
$GPGSA,A,3,10,32,14,31,27,08,18,24,,,,,1.83,1.11,1.45*0C
$GPGSV,3,1,12,10,63,009,28,32,60,285,38,18,54,075,33,51,52,200,43*70
$GPGSV,3,2,12,14,47,260,32,21,34,162,18,24,26,048,38,27,17,253,41*77
$GPGSV,3,3,12,31,15,195,43,08,12,288,41,25,05,127,18,12,03,093,45*7E
$GPRMC,210027.000,A,3037.7083,N,09628.9167,W,1.02,1.00,101117,,,D*7D
$GPGGA,210028.000,3037.7087,N,09628.9166,W,2,9,0.97,76.5,M,-23.2,M,0000,0000*5B
$GPGSA,A,3,10,32,25,14,31,27,08,18,24,,,,1.62,0.97,1.30*09
$GPGSV,3,1,12,10,63,009,29,32,60,285,38,18,54,075,33,51,52,200,43*71
$GPGSV,3,2,12,14,47,260,32,21,34,162,18,24,26,048,38,27,17,253,41*77
$GPGSV,3,3,12,31,15,195,43,08,12,288,40,25,05,127,19,12,03,093,44*7F
$GPRMC,210028.000,A,3037.7087,N,09628.9166,W,1.28,359.82,101117,,,D*7B
$GPGGA,210029.000,3037.7091,N,09628.9165,W,2,8,1.11,76.4,M,-23.2,M,0000,0000*51
$GPGSA,A,3,10,32,14,31,27,08,18,24,,,,,1.83,1.11,1.45*0C
$GPGSV,3,1,12,10,63,009,38,32,60,285,38,18,54,075,34,51,52,200,43*76
$GPGSV,3,2,12,14,47,260,31,21,34,162,18,24,26,048,39,27,17,253,42*76
$GPGSV,3,3,12,31,15,195,43,08,12,288,40,25,05,127,18,12,03,093,44*7E
$GPRMC,210029.000,A,3037.7091,N,09628.9165,W,1.49,359.87,101117,,,D*7C
$GPGGA,210030.000,3037.7096,N,09628.9165,W,2,10,0.86,76.3,M,-23.2,M,0000,0000*6F
$GPGSA,A,3,10,32,25,14,21,31,27,08,18,24,,,1.51,0.86,1.24*0F
$GPGSV,3,1,12,10,63,009,38,32,60,285,39,18,54,075,36,51,52,200,43*75
$GPGSV,3,2,12,14,47,260,31,21,34,162,28,24,26,048,39,27,17,253,42*75
$GPGSV,3,3,12,31,15,195,43,08,12,288,40,25,05,127,20,12,03,093,44*75
$GPRMC,210030.000,A,3037.7096,N,09628.9165,W,1.84,359.44,101117,,,D*7D
$GPGGA,210031.000,3037.7102,N,09628.9164,W,2,8,0.99,76.2,M,-23.2,M,0000,0000*55
$GPGSA,A,3,10,32,21,31,27,08,18,24,,,,,1.86,0.99,1.57*0D
$GPGSV,3,1,12,10,63,009,38,32,60,285,46,18,54,075,36,51,52,200,43*7D
$GPGSV,3,2,12,14,47,260,24,21,34,162,28,24,26,048,40,27,17,253,42*7F
$GPGSV,3,3,12,31,15,195,43,08,12,288,40,25,05,127,19,12,03,093,44*7F
$GPRMC,210031.000,A,3037.7102,N,09628.9164,W,2.20,359.26,101117,,,D*78
$GPGGA,210032.000,3037.7108,N,09628.9165,W,2,8,1.11,76.1,M,-23.2,M,0000,0000*5F
$GPGSA,A,3,10,32,14,31,27,08,18,24,,,,,1.83,1.11,1.45*0C
$GPGSV,3,1,12,10,63,009,39,32,60,285,46,18,54,075,36,51,52,200,43*7C
$GPGSV,3,2,12,14,47,260,35,21,34,162,20,24,26,048,39,27,17,253,42*79
$GPGSV,3,3,12,31,15,195,43,08,12,288,40,25,05,127,19,12,03,093,44*7F
$GPRMC,210032.000,A,3037.7108,N,09628.9165,W,1.91,359.00,101117,,,D*7D
$GPGGA,210033.000,3037.7112,N,09628.9165,W,2,10,0.86,76.0,M,-23.2,M,0000,0000*62
$GPGSA,A,3,10,32,25,14,21,31,27,08,18,24,,,1.51,0.86,1.24*0F
$GPGSV,3,1,12,10,63,009,39,32,60,285,45,18,54,075,37,51,52,200,42*7F
$GPGSV,3,2,12,14,47,260,35,21,34,162,28,24,26,048,39,27,17,253,42*71
$GPGSV,3,3,12,31,15,195,43,08,12,288,40,25,05,127,21,12,03,093,44*74
$GPRMC,210033.000,A,3037.7112,N,09628.9165,W,0.32,358.89,101117,,,D*7F
$GPGGA,210034.000,3037.7113,N,09628.9164,W,2,10,0.86,75.8,M,-23.2,M,0000,0000*6E
$GPGSA,A,3,10,32,25,14,21,31,27,08,18,24,,,1.51,0.86,1.24*0F
$GPGSV,3,1,12,10,63,009,39,32,60,285,44,18,54,075,30,51,52,200,41*7A
$GPGSV,3,2,12,14,47,260,36,21,34,162,28,24,26,048,38,27,17,253,40*71
$GPGSV,3,3,12,31,15,195,43,08,12,288,39,25,05,127,22,12,03,093,43*7E
$GPRMC,210034.000,A,3037.7113,N,09628.9164,W,0.04,359.20,101117,,,D*7F
$GPGGA,210035.000,3037.7114,N,09628.9165,W,2,10,0.83,75.9,M,-23.2,M,0000,0000*6D
$GPGSA,A,3,10,32,25,14,21,31,27,08,18,24,,,1.14,0.83,0.78*03
$GPGSV,3,1,12,10,63,009,39,32,60,285,43,18,54,075,30,51,52,200,41*7D
$GPGSV,3,2,12,14,47,260,37,21,34,162,29,24,26,048,38,27,17,253,39*7F
$GPGSV,3,3,12,31,15,195,43,08,12,288,39,25,05,127,24,12,03,093,43*78
$GPRMC,210035.000,A,3037.7114,N,09628.9165,W,0.04,359.34,101117,,,D*7D
$GPGGA,210036.000,3037.7115,N,09628.9165,W,2,10,0.86,75.9,M,-23.2,M,0000,0000*6A
$GPGSA,A,3,10,32,25,14,21,31,27,08,18,24,,,1.51,0.86,1.24*0F
$GPGSV,3,1,12,10,63,009,39,32,60,285,42,18,54,075,31,51,52,200,41*7D
$GPGSV,3,2,12,14,47,260,37,21,34,162,29,24,26,048,38,27,17,253,38*7E
$GPGSV,3,3,12,31,15,195,43,08,12,288,39,25,05,127,25,12,03,093,43*79
$GPRMC,210036.000,A,3037.7115,N,09628.9165,W,0.03,359.57,101117,,,D*7D
$GPGGA,210037.000,3037.7115,N,09628.9165,W,2,10,0.86,75.9,M,-23.2,M,0000,0000*6B
$GPGSA,A,3,10,32,25,14,21,31,27,08,18,24,,,1.51,0.86,1.24*0F
$GPGSV,3,1,12,10,63,009,39,32,60,285,42,18,54,075,31,51,52,200,41*7D
$GPGSV,3,2,12,14,47,260,37,21,34,162,29,24,26,048,38,27,17,253,37*71
$GPGSV,3,3,12,31,15,195,43,08,12,288,39,25,05,127,25,12,03,093,43*79
$GPRMC,210037.000,A,3037.7115,N,09628.9165,W,0.03,359.52,101117,,,D*79
$GPGGA,210038.000,3037.7115,N,09628.9165,W,2,10,0.86,75.8,M,-23.2,M,0000,0000*65
$GPGSA,A,3,10,32,25,14,21,31,27,08,18,24,,,1.51,0.86,1.24*0F
$GPGSV,3,1,12,10,63,009,39,32,60,285,42,18,54,075,31,51,52,200,41*7D
$GPGSV,3,2,12,14,47,260,37,21,34,162,29,24,26,048,38,27,17,253,37*71
$GPGSV,3,3,12,31,15,195,43,08,12,288,39,25,05,127,26,12,03,093,43*7A
$GPRMC,210038.000,A,3037.7115,N,09628.9165,W,0.04,359.13,101117,,,D*74
$GPGGA,210039.000,3037.7116,N,09628.9165,W,2,10,0.86,75.8,M,-23.2,M,0000,0000*67
$GPGSA,A,3,10,32,25,14,21,31,27,08,18,24,,,1.51,0.86,1.24*0F
$GPGSV,3,1,12,10,63,009,39,32,60,285,42,18,54,075,31,51,52,200,41*7D
$GPGSV,3,2,12,14,47,260,37,21,34,162,29,24,26,048,38,27,17,253,37*71
$GPGSV,3,3,12,31,16,195,43,08,12,288,39,25,05,127,25,12,03,093,43*7A
$GPRMC,210039.000,A,3037.7116,N,09628.9165,W,0.04,359.65,101117,,,D*77
$GPGGA,210040.000,3037.7116,N,09628.9165,W,2,10,0.86,75.8,M,-23.2,M,0000,0000*69
$GPGSA,A,3,10,32,25,14,21,31,27,08,18,24,,,1.51,0.86,1.24*0F
$GPGSV,3,1,12,10,63,009,39,32,61,285,42,18,54,075,32,51,52,200,41*7F
$GPGSV,3,2,12,14,47,260,37,21,34,162,29,24,26,048,38,27,17,253,37*71
$GPGSV,3,3,12,31,16,195,43,08,12,288,39,25,05,127,25,12,03,093,43*7A
$GPRMC,210040.000,A,3037.7116,N,09628.9165,W,0.02,359.61,101117,,,D*7B
$GPGGA,210041.000,3037.7116,N,09628.9165,W,2,10,0.86,75.8,M,-23.2,M,0000,0000*68
$GPGSA,A,3,10,32,25,14,21,31,27,08,18,24,,,1.51,0.86,1.24*0F
$GPGSV,3,1,12,10,63,009,39,32,61,285,42,18,54,075,32,51,52,200,41*7F
$GPGSV,3,2,12,14,47,260,37,21,34,162,30,24,26,048,38,27,17,253,37*79
$GPGSV,3,3,12,31,16,195,43,08,12,288,39,25,05,127,25,12,03,093,43*7A
$GPRMC,210041.000,A,3037.7116,N,09628.9165,W,0.01,359.61,101117,,,D*79
$GPGGA,210042.000,3037.7116,N,09628.9165,W,2,10,0.86,75.8,M,-23.2,M,0000,0000*6B
$GPGSA,A,3,10,32,25,14,21,31,27,08,18,24,,,1.51,0.86,1.24*0F
$GPGSV,3,1,12,10,63,009,39,32,61,285,42,18,54,075,32,51,52,200,41*7F
$GPGSV,3,2,12,14,47,260,37,21,34,162,30,24,26,048,38,27,17,253,37*79
$GPGSV,3,3,12,31,16,195,43,08,12,288,39,25,05,127,25,12,03,093,43*7A
$GPRMC,210042.000,A,3037.7116,N,09628.9165,W,0.03,359.61,101117,,,D*78
$GPGGA,210043.000,3037.7116,N,09628.9165,W,2,10,0.86,75.8,M,-23.2,M,0000,0000*6A
$GPGSA,A,3,10,32,25,14,21,31,27,08,18,24,,,1.51,0.86,1.24*0F
$GPGSV,3,1,12,10,63,009,39,32,61,285,42,18,54,075,32,51,52,200,41*7F
$GPGSV,3,2,12,14,47,260,37,21,34,162,30,24,26,048,38,27,17,253,37*79
$GPGSV,3,3,12,31,16,195,43,08,12,288,39,25,05,127,25,12,03,093,43*7A
$GPRMC,210043.000,A,3037.7116,N,09628.9165,W,0.05,359.61,101117,,,D*7F
$GPGGA,210044.000,3037.7116,N,09628.9165,W,2,10,0.86,75.8,M,-23.2,M,0000,0000*6D
$GPGSA,A,3,10,32,25,14,21,31,27,08,18,24,,,1.51,0.86,1.24*0F
$GPGSV,3,1,12,10,63,009,39,32,61,285,42,18,54,075,32,51,52,200,41*7F
$GPGSV,3,2,12,14,47,260,37,21,34,162,30,24,26,048,38,27,17,253,37*79
$GPGSV,3,3,12,31,16,195,42,08,12,288,40,25,05,127,24,12,03,093,43*74
$GPRMC,210044.000,A,3037.7116,N,09628.9165,W,0.06,359.61,101117,,,D*7B
$GPGGA,210045.000,3037.7115,N,09628.9164,W,2,10,0.86,75.8,M,-23.2,M,0000,0000*6E
$GPGSA,A,3,10,32,25,14,21,31,27,08,18,24,,,1.51,0.86,1.24*0F
$GPGSV,3,1,12,10,63,009,39,32,61,285,42,18,54,075,32,51,52,200,41*7F
$GPGSV,3,2,12,14,47,260,37,21,34,162,30,24,26,048,38,27,17,253,37*79
$GPGSV,3,3,12,31,16,195,42,08,12,288,40,25,05,127,24,12,03,093,43*74
$GPRMC,210045.000,A,3037.7115,N,09628.9164,W,0.03,359.61,101117,,,D*7D
$GPGGA,210046.000,3037.7115,N,09628.9164,W,2,10,0.86,75.8,M,-23.2,M,0000,0000*6D
$GPGSA,A,3,10,32,25,14,21,31,27,08,18,24,,,1.51,0.86,1.24*0F
$GPGSV,3,1,12,10,63,009,39,32,61,285,41,18,54,075,32,51,52,200,41*7C
$GPGSV,3,2,12,14,47,260,37,21,34,162,29,24,26,048,39,27,17,253,37*70
$GPGSV,3,3,12,31,16,195,42,08,12,288,40,25,05,127,24,12,03,093,43*74
$GPRMC,210046.000,A,3037.7115,N,09628.9164,W,0.03,359.61,101117,,,D*7E
$GPGGA,210047.000,3037.7115,N,09628.9164,W,2,10,0.86,75.8,M,-23.2,M,0000,0000*6C
$GPGSA,A,3,10,32,25,14,21,31,27,08,18,24,,,1.51,0.86,1.24*0F
$GPGSV,3,1,12,10,63,009,39,32,61,285,41,18,54,075,32,51,52,200,40*7D
$GPGSV,3,2,12,14,47,260,38,21,34,162,31,24,26,048,40,27,17,253,36*79
$GPGSV,3,3,12,31,16,195,42,08,12,288,41,25,05,127,24,12,03,093,43*75
$GPRMC,210047.000,A,3037.7115,N,09628.9164,W,0.06,359.61,101117,,,D*7A
$GPGGA,210048.000,3037.7115,N,09628.9165,W,2,10,0.86,75.7,M,-23.2,M,0000,0000*6D
$GPGSA,A,3,10,32,25,14,21,31,27,08,18,24,,,1.51,0.86,1.24*0F
$GPGSV,3,1,12,10,63,009,39,32,61,285,40,18,54,075,32,51,52,200,39*72
$GPGSV,3,2,12,14,47,260,39,21,34,162,38,24,26,048,41,27,17,253,35*73
$GPGSV,3,3,12,31,16,195,42,08,12,287,41,25,05,127,24,12,03,093,43*7A
$GPRMC,210048.000,A,3037.7115,N,09628.9165,W,0.08,359.61,101117,,,D*7A
$GPGGA,210049.000,3037.7116,N,09628.9165,W,2,10,0.86,75.7,M,-23.2,M,0000,0000*6F
$GPGSA,A,3,10,32,25,14,21,31,27,08,18,24,,,1.51,0.86,1.24*0F
$GPGSV,3,1,12,10,63,009,38,32,61,285,40,18,54,075,32,51,52,200,38*72
$GPGSV,3,2,12,14,47,260,40,21,34,162,38,24,26,048,41,27,17,253,35*7D
$GPGSV,3,3,12,31,16,195,42,08,12,287,41,25,05,127,24,12,03,093,43*7A
$GPRMC,210049.000,A,3037.7116,N,09628.9165,W,0.51,359.61,101117,,,D*74
$GPGGA,210050.000,3037.7117,N,09628.9165,W,2,10,0.86,75.7,M,-23.2,M,0000,0000*66
$GPGSA,A,3,10,32,25,14,21,31,27,08,18,24,,,1.51,0.86,1.24*0F
$GPGSV,3,1,12,10,63,010,38,32,61,285,40,18,54,075,32,51,52,200,38*7A
$GPGSV,3,2,12,14,47,260,40,21,34,162,38,24,26,048,41,27,17,253,35*7D
$GPGSV,3,3,12,31,16,195,42,08,12,287,42,25,05,127,25,12,03,093,43*78
$GPRMC,210050.000,A,3037.7117,N,09628.9165,W,1.21,359.61,101117,,,D*7B
$GPGGA,210051.000,3037.7122,N,09628.9165,W,2,10,0.86,75.8,M,-23.2,M,0000,0000*6E
$GPGSA,A,3,10,32,25,14,21,31,27,08,18,24,,,1.51,0.86,1.24*0F
$GPGSV,3,1,12,10,63,010,38,32,61,285,40,18,54,075,32,51,52,200,38*7A
$GPGSV,3,2,12,14,47,260,40,21,34,162,38,24,26,048,41,27,17,253,35*7D
$GPGSV,3,3,12,31,16,195,42,08,12,287,43,25,05,127,26,12,03,093,43*7A
$GPRMC,210051.000,A,3037.7122,N,09628.9165,W,2.17,0.43,101117,,,D*75
$GPGGA,210052.000,3037.7129,N,09628.9165,W,2,10,0.86,75.9,M,-23.2,M,0000,0000*67
$GPGSA,A,3,10,32,25,14,21,31,27,08,18,24,,,1.51,0.86,1.24*0F
$GPGSV,3,1,12,10,63,010,37,32,61,285,40,18,54,075,31,51,52,200,38*76
$GPGSV,3,2,12,14,47,260,41,21,34,162,37,24,26,048,41,27,17,253,35*73
$GPGSV,3,3,12,31,16,195,42,08,12,287,42,25,05,127,27,12,04,092,42*7D
$GPRMC,210052.000,A,3037.7129,N,09628.9165,W,2.56,1.00,101117,,,D*7E
$GPGGA,210053.000,3037.7135,N,09628.9165,W,2,10,0.86,76.1,M,-23.2,M,0000,0000*60
$GPGSA,A,3,10,32,25,14,21,31,27,08,18,24,,,1.51,0.86,1.24*0F
$GPGSV,3,1,12,10,63,010,37,32,61,285,40,18,54,075,24,51,52,200,39*73
$GPGSV,3,2,12,14,47,260,41,21,34,162,35,24,26,048,41,27,17,253,35*71
$GPGSV,3,3,12,31,16,195,42,08,12,287,42,25,05,127,28,12,04,092,41*71
$GPRMC,210053.000,A,3037.7135,N,09628.9165,W,1.82,1.49,101117,,,D*75
$GPGGA,210054.000,3037.7139,N,09628.9167,W,2,10,0.86,76.4,M,-23.2,M,0000,0000*6C
$GPGSA,A,3,10,32,25,14,21,31,27,08,18,24,,,1.51,0.86,1.24*0F
$GPGSV,3,1,12,10,63,010,37,32,61,285,40,18,54,075,24,51,52,200,39*73
$GPGSV,3,2,12,14,47,260,41,21,34,162,33,24,26,048,42,27,17,253,35*74
$GPGSV,3,3,12,31,16,195,42,08,12,287,42,25,05,127,29,12,04,092,41*70
$GPRMC,210054.000,A,3037.7139,N,09628.9167,W,0.42,1.65,101117,,,D*7F
$GPGGA,210055.000,3037.7139,N,09628.9167,W,2,10,0.86,76.4,M,-23.2,M,0000,0000*6D
$GPGSA,A,3,10,32,25,14,21,31,27,08,18,24,,,1.51,0.86,1.24*0F
$GPGSV,3,1,12,10,63,010,37,32,61,285,40,18,54,075,24,51,52,200,39*73
$GPGSV,3,2,12,14,47,260,40,21,34,162,32,24,26,048,43,27,17,253,37*77
$GPGSV,3,3,12,31,16,195,42,08,12,287,42,25,05,127,30,12,04,092,41*78
$GPRMC,210055.000,A,3037.7139,N,09628.9167,W,0.02,1.96,101117,,,D*76
$GPGGA,210056.000,3037.7138,N,09628.9166,W,2,9,0.86,76.5,M,-23.2,M,0000,0000*57
$GPGSA,A,3,10,32,25,14,21,31,27,08,24,,,,1.17,0.86,0.79*0D
$GPGSV,3,1,12,10,63,010,37,32,61,285,39,18,54,075,23,51,52,200,39*7A
$GPGSV,3,2,12,14,47,260,39,21,34,162,30,24,26,048,42,27,17,253,37*7A
$GPGSV,3,3,12,31,16,195,42,08,12,287,42,25,05,127,23,12,04,092,41*7A
$GPRMC,210056.000,A,3037.7138,N,09628.9166,W,0.04,2.96,101117,,,D*70
$GPGGA,210057.000,3037.7138,N,09628.9165,W,2,10,0.86,76.7,M,-23.2,M,0000,0000*6F
$GPGSA,A,3,10,32,25,14,21,31,27,08,18,24,,,1.51,0.86,1.24*0F
$GPGSV,3,1,12,10,63,010,37,32,61,285,39,18,54,075,32,51,52,200,40*74
$GPGSV,3,2,12,14,47,260,40,21,34,162,30,24,26,048,42,27,17,253,36*75
$GPGSV,3,3,12,31,16,195,42,08,12,287,41,25,05,127,25,12,04,092,41*7F
$GPRMC,210057.000,A,3037.7138,N,09628.9165,W,0.04,4.13,101117,,,D*79
$GPGGA,210058.000,3037.7138,N,09628.9165,W,2,10,0.86,76.7,M,-23.2,M,0000,0000*60
$GPGSA,A,3,10,32,25,14,21,31,27,08,18,24,,,1.51,0.86,1.24*0F
$GPGSV,3,1,12,10,63,010,37,32,61,285,39,18,54,075,31,51,52,200,40*77
$GPGSV,3,2,12,14,47,260,39,21,34,162,30,24,26,048,43,27,17,253,36*7A
$GPGSV,3,3,12,31,16,195,42,08,12,287,41,25,05,127,26,12,04,092,41*7C
$GPRMC,210058.000,A,3037.7138,N,09628.9165,W,0.05,3.81,101117,,,D*7B
$GPGGA,210059.000,3037.7138,N,09628.9165,W,2,10,0.86,76.7,M,-23.2,M,0000,0000*61
$GPGSA,A,3,10,32,25,14,21,31,27,08,18,24,,,1.51,0.86,1.24*0F
$GPGSV,3,1,12,10,63,010,38,32,61,285,39,18,54,075,31,51,52,200,40*78
$GPGSV,3,2,12,14,47,260,38,21,34,162,30,24,26,048,43,27,17,253,37*7A
$GPGSV,3,3,12,31,16,195,42,08,12,287,40,25,05,127,26,12,04,092,41*7D
$GPRMC,210059.000,A,3037.7138,N,09628.9165,W,0.43,3.81,101117,,,D*78
$GPGGA,210100.000,3037.7139,N,09628.9165,W,2,10,0.86,76.7,M,-23.2,M,0000,0000*6D
$GPGSA,A,3,10,32,25,14,21,31,27,08,18,24,,,1.51,0.86,1.24*0F
$GPGSV,3,1,12,10,63,010,38,32,61,285,39,18,54,075,30,51,52,200,41*78
$GPGSV,3,2,12,14,47,260,38,21,34,162,30,24,26,048,43,27,17,253,37*7A
$GPGSV,3,3,12,31,16,195,43,08,12,287,40,25,05,127,26,12,04,092,41*7C
$GPRMC,210100.000,A,3037.7139,N,09628.9165,W,0.72,2.23,101117,,,D*7F
$GPGGA,210101.000,3037.7143,N,09628.9165,W,2,10,0.86,76.7,M,-23.2,M,0000,0000*61
$GPGSA,A,3,10,32,25,14,21,31,27,08,18,24,,,1.51,0.86,1.24*0F
$GPGSV,3,1,12,10,63,010,38,32,61,285,39,18,54,075,30,51,52,200,41*78
$GPGSV,3,2,12,14,47,260,37,21,33,162,29,24,26,048,43,27,17,253,37*7A
$GPGSV,3,3,12,31,16,195,43,08,12,287,41,25,05,127,25,12,04,092,41*7E
$GPRMC,210101.000,A,3037.7143,N,09628.9165,W,1.21,0.83,101117,,,D*7C
$GPGGA,210102.000,3037.7148,N,09628.9164,W,2,10,0.86,76.6,M,-23.2,M,0000,0000*69
$GPGSA,A,3,10,32,25,14,21,31,27,08,18,24,,,1.51,0.86,1.24*0F
$GPGSV,3,1,12,10,63,010,39,32,61,285,40,18,54,075,29,51,52,200,41*7F
$GPGSV,3,2,12,14,47,260,36,21,33,162,28,24,26,048,43,27,17,253,37*7A
$GPGSV,3,3,12,31,16,195,43,08,12,287,41,25,05,127,25,12,04,092,40*7F
$GPRMC,210102.000,A,3037.7148,N,09628.9164,W,1.60,0.53,101117,,,D*7D
$GPGGA,210103.000,3037.7153,N,09628.9163,W,2,9,0.97,76.4,M,-23.2,M,0000,0000*5F
$GPGSA,A,3,10,32,25,14,31,27,08,18,24,,,,1.62,0.97,1.30*09
$GPGSV,3,1,12,10,63,010,38,32,61,285,40,18,54,075,27,51,52,200,41*70
$GPGSV,3,2,12,14,47,260,35,21,33,162,21,24,26,048,43,27,17,253,37*70
$GPGSV,3,3,12,31,16,195,43,08,12,287,42,25,05,127,25,12,04,092,40*7C
$GPRMC,210103.000,A,3037.7153,N,09628.9163,W,1.85,1.13,101117,,,D*7F
$GPGGA,210104.000,3037.7159,N,09628.9162,W,2,9,0.94,76.4,M,-23.2,M,0000,0000*50
$GPGSA,A,3,10,32,14,21,31,27,08,18,24,,,,1.72,0.94,1.44*0C
$GPGSV,3,1,12,10,63,010,28,32,61,285,40,18,54,075,26,51,52,200,41*70
$GPGSV,3,2,12,14,47,260,35,21,33,162,23,24,26,047,43,27,17,253,38*72
$GPGSV,3,3,12,31,16,195,43,08,12,287,43,25,05,127,24,12,04,092,40*7C
$GPRMC,210104.000,A,3037.7159,N,09628.9162,W,2.16,1.88,101117,,,D*78
$GPGGA,210105.000,3037.7165,N,09628.9161,W,2,8,0.96,76.6,M,-23.2,M,0000,0000*5C
$GPGSA,A,3,32,14,21,31,27,08,18,24,,,,,1.82,0.96,1.55*00
$GPGSV,3,1,12,10,63,010,27,32,61,285,40,18,54,075,26,51,52,200,41*7F
$GPGSV,3,2,12,14,47,260,35,21,33,162,24,24,26,047,43,27,17,253,39*74
$GPGSV,3,3,12,31,16,195,43,08,12,287,43,25,06,127,24,12,04,092,40*7F
$GPRMC,210105.000,A,3037.7165,N,09628.9161,W,2.43,2.77,101117,,,D*76
$GPGGA,210106.000,3037.7173,N,09628.9159,W,2,9,0.94,76.6,M,-23.2,M,0000,0000*50
$GPGSA,A,3,10,32,14,21,31,27,08,18,24,,,,1.72,0.94,1.44*0C
$GPGSV,3,1,12,10,63,010,27,32,61,285,40,18,54,075,33,51,52,200,41*7B
$GPGSV,3,2,12,14,47,260,35,21,33,162,26,24,26,047,43,27,17,253,40*78
$GPGSV,3,3,12,31,16,195,43,08,12,287,43,25,06,127,24,12,04,092,39*71
$GPRMC,210106.000,A,3037.7173,N,09628.9159,W,2.65,3.24,101117,,,D*7A
$GPGGA,210107.000,3037.7181,N,09628.9158,W,2,10,0.86,76.7,M,-23.2,M,0000,0000*67
$GPGSA,A,3,10,32,25,14,21,31,27,08,18,24,,,1.51,0.86,1.24*0F
$GPGSV,3,1,12,10,63,010,36,32,61,285,41,18,54,075,34,51,52,200,42*7E
$GPGSV,3,2,12,14,47,260,36,21,33,162,27,24,26,047,43,27,17,252,41*7A
$GPGSV,3,3,12,31,16,195,42,08,12,287,43,25,06,127,25,12,04,092,39*71
$GPRMC,210107.000,A,3037.7181,N,09628.9158,W,2.84,3.02,101117,,,D*7C
$GPGGA,210108.000,3037.7189,N,09628.9159,W,2,10,0.86,76.6,M,-23.2,M,0000,0000*60
$GPGSA,A,3,10,32,25,14,21,31,27,08,18,24,,,1.51,0.86,1.24*0F
$GPGSV,3,1,12,10,63,010,35,32,61,285,41,18,54,075,35,51,52,200,42*7C
$GPGSV,3,2,12,14,47,260,36,21,33,162,25,24,26,047,43,27,17,252,41*78
$GPGSV,3,3,12,31,16,195,42,08,12,287,43,25,06,127,25,12,04,092,39*71
$GPRMC,210108.000,A,3037.7189,N,09628.9159,W,2.91,3.03,101117,,,D*7F
$GPGGA,210109.000,3037.7198,N,09628.9158,W,2,9,0.97,76.6,M,-23.2,M,0000,0000*58
$GPGSA,A,3,10,32,25,14,31,27,08,18,24,,,,1.62,0.97,1.30*09
$GPGSV,3,1,12,10,63,010,34,32,61,285,40,18,54,075,36,51,52,200,42*7F
$GPGSV,3,2,12,14,47,260,35,21,33,162,23,24,26,047,43,27,17,252,42*7E
$GPGSV,3,3,12,31,16,195,43,08,12,287,43,25,06,127,26,12,04,092,39*73
$GPRMC,210109.000,A,3037.7198,N,09628.9158,W,3.14,1.59,101117,,,D*7E
$GPGGA,210110.000,3037.7207,N,09628.9158,W,2,9,0.94,76.6,M,-23.2,M,0000,0000*56
$GPGSA,A,3,10,32,14,21,31,27,08,18,24,,,,1.72,0.94,1.44*0C
$GPGSV,3,1,12,10,63,010,27,32,61,285,39,18,54,075,29,51,52,200,41*7E
$GPGSV,3,2,12,14,47,260,35,21,33,162,24,24,26,047,43,27,17,252,41*7A
$GPGSV,3,3,12,31,16,195,43,08,12,287,43,25,06,127,25,12,04,092,39*70
$GPRMC,210110.000,A,3037.7207,N,09628.9158,W,3.16,1.03,101117,,,D*7E
$GPGGA,210120.000,3037.7304,N,09628.9161,W,2,9,0.94,75.7,M,-23.2,M,0000,0000*5F
$GPGSA,A,3,10,32,14,21,31,27,08,18,24,,,,1.72,0.94,1.44*0C
$GPGSV,3,1,12,10,63,010,34,32,61,286,39,18,54,075,34,51,52,200,31*74
$GPGSV,3,2,12,14,47,260,36,21,33,162,33,24,26,047,41,27,17,252,39*72
$GPGSV,3,3,12,31,16,195,41,08,12,287,44,25,06,127,23,12,04,092,43*7E
$GPRMC,210120.000,A,3037.7304,N,09628.9161,W,3.48,359.89,101117,,,D*72
$GPGGA,210121.000,3037.7313,N,09628.9161,W,2,9,0.94,75.8,M,-23.2,M,0000,0000*57
$GPGSA,A,3,10,32,14,21,31,27,08,18,24,,,,1.72,0.94,1.44*0C
$GPGSV,3,1,12,10,63,010,32,32,61,286,39,18,54,075,32,51,52,200,31*74
$GPGSV,3,2,12,14,47,260,37,21,33,162,33,24,26,047,41,27,17,252,39*73
$GPGSV,3,3,12,31,16,195,41,08,12,287,42,25,06,127,22,12,04,092,42*78
$GPRMC,210121.000,A,3037.7313,N,09628.9161,W,3.16,359.12,101117,,,D*7C
$GPGGA,210122.000,3037.7320,N,09628.9162,W,2,9,0.94,75.7,M,-23.2,M,0000,0000*58
$GPGSA,A,3,10,32,14,21,31,27,08,18,24,,,,1.72,0.94,1.44*0C
$GPGSV,3,1,12,10,63,011,33,32,61,286,31,18,54,075,33,51,52,200,32*7E
$GPGSV,3,2,12,14,47,260,38,21,33,162,34,24,26,047,40,27,17,252,37*74
$GPGSV,3,3,12,31,16,195,26,08,12,287,42,25,06,127,21,12,04,092,33*7C
$GPRMC,210122.000,A,3037.7320,N,09628.9162,W,1.74,353.46,101117,,,D*71
$GPGGA,210123.000,3037.7323,N,09628.9162,W,2,9,0.94,75.6,M,-23.2,M,0000,0000*5B
$GPGSA,A,3,10,32,14,21,31,27,08,18,24,,,,1.72,0.94,1.44*0C
$GPGSV,3,1,12,10,63,011,33,32,61,286,32,18,54,075,32,51,52,200,31*7F
$GPGSV,3,2,12,14,47,260,38,21,33,162,27,24,26,047,39,27,17,252,37*78
$GPGSV,3,3,12,31,16,195,24,08,12,287,42,25,06,127,20,12,04,092,25*78
$GPRMC,210123.000,A,3037.7323,N,09628.9162,W,0.62,36.85,101117,,,D*4A
$GPGGA,210124.000,3037.7322,N,09628.9161,W,2,10,0.83,75.4,M,-23.2,M,0000,0000*62
$GPGSA,A,3,10,32,25,14,21,31,27,08,18,24,,,1.14,0.83,0.78*03
$GPGSV,3,1,12,10,63,011,34,32,61,286,31,18,54,075,25,51,52,200,31*7D
$GPGSV,3,2,12,14,47,260,37,21,33,162,25,24,26,047,39,27,17,252,35*77
$GPGSV,3,3,12,31,16,195,25,08,12,287,35,25,06,127,19,12,04,092,35*72
$GPRMC,210124.000,A,3037.7322,N,09628.9161,W,0.55,5.06,101117,,,D*70
$GPGGA,210125.000,3037.7323,N,09628.9159,W,2,10,0.83,75.5,M,-23.2,M,0000,0000*68
$GPGSA,A,3,10,32,25,14,21,31,27,08,18,24,,,1.14,0.83,0.78*03
$GPGSV,3,1,12,10,63,011,35,32,61,286,29,18,54,075,25,51,52,200,31*75
$GPGSV,3,2,12,14,47,260,36,21,33,162,24,24,26,047,38,27,17,252,34*77
$GPGSV,3,3,12,31,16,195,25,08,12,287,34,25,06,127,20,12,04,092,34*78
$GPRMC,210125.000,A,3037.7323,N,09628.9159,W,0.50,8.45,101117,,,D*74
$GPGGA,210126.000,3037.7323,N,09628.9158,W,2,9,0.91,75.4,M,-23.2,M,0000,0000*50
$GPGSA,A,3,10,32,14,21,31,27,08,18,24,,,,1.23,0.91,0.82*06
$GPGSV,3,1,12,10,63,011,35,32,61,286,28,18,54,075,25,51,52,200,32*77
$GPGSV,3,2,12,14,47,260,36,21,33,162,24,24,26,047,40,27,17,252,33*7F
$GPGSV,3,3,12,31,16,195,26,08,12,287,35,25,06,127,19,12,04,092,35*71
$GPRMC,210126.000,A,3037.7323,N,09628.9158,W,0.44,9.16,101117,,,D*74
$GPGGA,210127.000,3037.7326,N,09628.9157,W,2,9,0.91,75.2,M,-23.2,M,0000,0000*5D
$GPGSA,A,3,10,32,14,21,31,27,08,18,24,,,,1.23,0.91,0.82*06
$GPGSV,3,1,12,10,63,011,34,32,61,286,28,18,54,075,26,51,52,200,32*75
$GPGSV,3,2,12,14,47,260,35,21,33,162,31,24,26,047,40,27,17,252,35*7E
$GPGSV,3,3,12,31,16,195,36,08,12,287,36,25,06,127,18,12,04,092,36*71
$GPRMC,210127.000,A,3037.7326,N,09628.9157,W,0.42,21.03,101117,,,D*47
$GPGGA,210128.000,3037.7327,N,09628.9156,W,2,9,0.94,75.1,M,-23.2,M,0000,0000*54
$GPGSA,A,3,10,32,14,21,31,27,08,18,24,,,,1.72,0.94,1.44*0C
$GPGSV,3,1,12,10,63,011,34,32,61,286,30,18,54,075,26,51,52,200,32*7C
$GPGSV,3,2,12,14,47,260,35,21,33,162,31,24,26,047,40,27,17,252,34*7F
$GPGSV,3,3,12,31,16,195,26,08,12,287,36,25,06,127,18,12,04,092,36*70
$GPRMC,210128.000,A,3037.7327,N,09628.9156,W,0.05,22.19,101117,,,D*43
$GPGGA,210129.000,3037.7327,N,09628.9156,W,2,10,0.86,74.9,M,-23.2,M,0000,0000*67
$GPGSA,A,3,10,32,25,14,21,31,27,08,18,24,,,1.51,0.86,1.24*0F
$GPGSV,3,1,12,10,63,011,34,32,61,286,29,18,54,075,25,51,52,200,31*74
$GPGSV,3,2,12,14,47,260,35,21,33,162,24,24,26,047,41,27,17,252,35*7B
$GPGSV,3,3,12,31,16,195,27,08,12,287,36,25,06,127,19,12,04,092,36*70
$GPRMC,210129.000,A,3037.7327,N,09628.9156,W,0.10,20.87,101117,,,D*43
$GPGGA,210130.000,3037.7327,N,09628.9156,W,2,8,0.89,74.7,M,-23.2,M,0000,0000*57
$GPGSA,A,3,10,25,14,21,31,27,08,24,,,,,1.73,0.89,1.48*02
$GPGSV,3,1,12,10,63,011,34,32,61,286,27,18,54,075,23,51,52,200,31*7C
$GPGSV,3,2,12,14,47,260,36,21,33,162,25,24,26,047,41,27,17,252,36*7A
$GPGSV,3,3,12,31,16,195,28,08,12,287,36,25,06,127,20,12,04,092,36*75
$GPRMC,210130.000,A,3037.7327,N,09628.9156,W,0.13,18.63,101117,,,D*49
$GPGGA,210131.000,3037.7327,N,09628.9156,W,2,9,0.87,74.6,M,-23.2,M,0000,0000*58
$GPGSA,A,3,10,25,14,21,31,27,08,18,24,,,,1.62,0.87,1.37*0D
$GPGSV,3,1,12,10,63,011,34,32,61,286,26,18,54,075,23,51,52,200,31*7D
$GPGSV,3,2,12,14,47,260,36,21,33,162,25,24,26,047,41,27,17,252,36*7A
$GPGSV,3,3,12,31,16,195,29,08,12,287,36,25,06,127,20,12,04,092,36*74
$GPRMC,210131.000,A,3037.7327,N,09628.9156,W,0.04,17.09,101117,,,D*4D
$GPGGA,210132.000,3037.7327,N,09628.9156,W,2,9,0.94,74.4,M,-23.2,M,0000,0000*5B
$GPGSA,A,3,10,32,14,21,31,27,08,18,24,,,,1.72,0.94,1.44*0C
$GPGSV,3,1,12,10,63,011,36,32,61,286,42,18,54,075,34,51,52,200,33*79
$GPGSV,3,2,12,14,47,260,36,21,33,162,26,24,26,047,39,27,17,252,34*74
$GPGSV,3,3,12,31,16,195,31,08,12,287,36,25,06,127,19,12,04,092,35*74
$GPRMC,210132.000,A,3037.7327,N,09628.9156,W,0.22,17.09,101117,,,D*4A
$GPGGA,210133.000,3037.7327,N,09628.9155,W,2,10,0.83,74.3,M,-23.2,M,0000,0000*60
$GPGSA,A,3,10,32,25,14,21,31,27,08,18,24,,,1.14,0.83,0.78*03
$GPGSV,3,1,12,10,63,011,37,32,61,286,41,18,54,075,35,51,52,200,32*7B
$GPGSV,3,2,12,14,47,260,38,21,33,163,38,24,26,047,39,27,17,252,33*73
$GPGSV,3,3,12,31,16,195,31,08,12,287,34,25,06,127,20,12,04,092,34*7D
$GPRMC,210133.000,A,3037.7327,N,09628.9155,W,0.42,17.09,101117,,,D*4E
$GPGGA,210134.000,3037.7328,N,09628.9154,W,2,10,0.83,74.2,M,-23.2,M,0000,0000*68
$GPGSA,A,3,10,32,25,14,21,31,27,08,18,24,,,1.14,0.83,0.78*03
$GPGSV,3,1,12,10,63,011,37,32,61,286,42,18,54,075,34,51,52,200,42*7E
$GPGSV,3,2,12,14,47,260,37,21,33,163,36,24,26,047,38,27,17,252,24*75
$GPGSV,3,3,12,31,16,195,29,08,12,287,35,25,06,127,30,12,04,092,34*74
$GPRMC,210134.000,A,3037.7328,N,09628.9154,W,0.22,17.09,101117,,,D*41
$GPGGA,210135.000,3037.7328,N,09628.9154,W,2,10,0.83,74.1,M,-23.2,M,0000,0000*6A
$GPGSA,A,3,10,32,25,14,21,31,27,08,18,24,,,1.14,0.83,0.78*03
$GPGSV,3,1,12,10,63,011,28,32,61,286,42,18,54,075,33,51,52,200,41*74
$GPGSV,3,2,12,14,47,260,36,21,33,163,29,24,26,047,38,27,17,252,26*78
$GPGSV,3,3,12,31,16,195,29,08,12,287,35,25,06,127,29,12,04,092,34*7C
$GPRMC,210135.000,A,3037.7328,N,09628.9154,W,0.08,17.09,101117,,,D*48
$GPGGA,210136.000,3037.7328,N,09628.9154,W,2,10,0.83,74.1,M,-23.2,M,0000,0000*69
$GPGSA,A,3,10,32,25,14,21,31,27,08,18,24,,,1.14,0.83,0.78*03
$GPGSV,3,1,12,10,63,011,27,32,61,286,42,18,54,075,33,51,52,200,41*7B
$GPGSV,3,2,12,14,47,260,35,21,33,163,29,24,26,047,37,27,17,252,28*7A
$GPGSV,3,3,12,31,16,195,29,08,12,287,34,25,06,127,29,12,04,092,35*7C
$GPRMC,210136.000,A,3037.7328,N,09628.9154,W,0.04,17.09,101117,,,D*47
$GPGGA,210137.000,3037.7328,N,09628.9154,W,2,10,0.83,74.0,M,-23.2,M,0000,0000*69
$GPGSA,A,3,10,32,25,14,21,31,27,08,18,24,,,1.14,0.83,0.78*03
$GPGSV,3,1,12,10,63,011,27,32,61,286,42,18,54,075,33,51,52,200,40*7A
$GPGSV,3,2,12,14,47,260,34,21,33,163,28,24,26,047,36,27,17,252,29*7A
$GPGSV,3,3,12,31,16,195,29,08,12,287,34,25,06,127,28,12,04,092,36*7E
$GPRMC,210137.000,A,3037.7328,N,09628.9154,W,0.12,17.09,101117,,,D*41
$GPGGA,210138.000,3037.7327,N,09628.9154,W,2,10,0.83,74.0,M,-23.2,M,0000,0000*69
$GPGSA,A,3,10,32,25,14,21,31,27,08,18,24,,,1.14,0.83,0.78*03
$GPGSV,3,1,12,10,63,011,26,32,61,286,42,18,54,075,32,51,52,200,39*74
$GPGSV,3,2,12,14,47,260,34,21,33,163,28,24,26,047,36,27,17,252,30*72
$GPGSV,3,3,12,31,16,195,29,08,12,287,34,25,06,127,28,12,04,092,36*7E
$GPRMC,210138.000,A,3037.7327,N,09628.9154,W,0.19,17.09,101117,,,D*4A
$GPGGA,210139.000,3037.7327,N,09628.9155,W,2,10,0.83,74.0,M,-23.2,M,0000,0000*69
$GPGSA,A,3,10,32,25,14,21,31,27,08,18,24,,,1.14,0.83,0.78*03
$GPGSV,3,1,12,10,63,011,28,32,61,286,42,18,54,075,30,51,52,200,39*78
$GPGSV,3,2,12,14,47,260,32,21,33,163,28,24,26,047,35,27,17,252,31*76
$GPGSV,3,3,12,31,16,195,29,08,12,287,32,25,06,127,27,12,04,092,36*77
$GPRMC,210139.000,A,3037.7327,N,09628.9155,W,0.15,17.09,101117,,,D*46
$GPGGA,210140.000,3037.7327,N,09628.9154,W,2,10,0.83,73.9,M,-23.2,M,0000,0000*68
$GPGSA,A,3,10,32,25,14,21,31,27,08,18,24,,,1.14,0.83,0.78*03
$GPGSV,3,1,12,10,63,011,29,32,61,286,42,18,54,075,29,51,52,200,39*71
$GPGSV,3,2,12,14,47,260,31,21,33,163,28,24,26,047,34,27,17,252,32*77
$GPGSV,3,3,12,31,16,195,29,08,12,287,31,25,06,127,26,12,04,092,36*75
$GPRMC,210140.000,A,3037.7327,N,09628.9154,W,0.22,17.09,101117,,,D*4D
$GPGGA,210141.000,3037.7326,N,09628.9154,W,2,10,0.83,73.9,M,-23.2,M,0000,0000*68
$GPGSA,A,3,10,32,25,14,21,31,27,08,18,24,,,1.14,0.83,0.78*03
$GPGSV,3,1,12,10,63,011,31,32,61,286,42,18,54,075,29,51,52,200,40*76
$GPGSV,3,2,12,14,47,260,31,21,33,163,29,24,26,047,35,27,17,252,33*76
$GPGSV,3,3,12,31,16,195,30,08,12,287,31,25,06,127,26,12,04,092,37*7C
$GPRMC,210141.000,A,3037.7326,N,09628.9154,W,0.13,17.09,101117,,,D*4F
$GPGGA,210142.000,3037.7326,N,09628.9154,W,2,10,0.83,73.9,M,-23.2,M,0000,0000*6B
$GPGSA,A,3,10,32,25,14,21,31,27,08,18,24,,,1.14,0.83,0.78*03
$GPGSV,3,1,12,10,63,011,31,32,61,286,42,18,54,075,29,51,52,200,39*78
$GPGSV,3,2,12,14,47,260,31,21,33,163,29,24,26,047,34,27,17,252,33*77
$GPGSV,3,3,12,31,16,195,30,08,12,287,30,25,06,127,26,12,04,092,36*7C
$GPRMC,210142.000,A,3037.7326,N,09628.9154,W,0.06,17.09,101117,,,D*48
$GPGGA,210143.000,3037.7326,N,09628.9154,W,2,10,0.83,73.8,M,-23.2,M,0000,0000*6B
$GPGSA,A,3,10,32,25,14,21,31,27,08,18,24,,,1.14,0.83,0.78*03
$GPGSV,3,1,12,10,63,011,29,32,61,286,42,18,54,075,29,51,52,200,38*70
$GPGSV,3,2,12,14,47,260,31,21,33,163,28,24,26,047,33,27,17,252,33*71
$GPGSV,3,3,12,31,16,195,30,08,12,287,30,25,06,127,26,12,04,092,36*7C
$GPRMC,210143.000,A,3037.7326,N,09628.9154,W,0.09,17.09,101117,,,D*46
$GPGGA,210144.000,3037.7326,N,09628.9153,W,2,10,0.83,73.8,M,-23.2,M,0000,0000*6B
$GPGSA,A,3,10,32,25,14,21,31,27,08,18,24,,,1.14,0.83,0.78*03
$GPGSV,3,1,12,10,63,011,30,32,61,286,41,18,54,075,29,51,52,200,38*7B
$GPGSV,3,2,12,14,47,260,30,21,33,163,29,24,26,047,32,27,17,252,32*71
$GPGSV,3,3,12,31,16,195,30,08,12,287,30,25,06,127,26,12,04,092,36*7C
$GPRMC,210144.000,A,3037.7326,N,09628.9153,W,0.12,17.09,101117,,,D*4C
$GPGGA,210145.000,3037.7326,N,09628.9153,W,2,10,0.83,73.8,M,-23.2,M,0000,0000*6A
$GPGSA,A,3,10,32,25,14,21,31,27,08,18,24,,,1.14,0.83,0.78*03
$GPGSV,3,1,12,10,63,011,31,32,61,286,41,18,54,075,30,51,52,200,38*72
$GPGSV,3,2,12,14,47,260,29,21,33,163,30,24,26,047,32,27,17,252,32*71
$GPGSV,3,3,12,31,16,195,30,08,12,287,31,25,06,127,26,12,04,092,36*7D
$GPRMC,210145.000,A,3037.7326,N,09628.9153,W,0.16,17.09,101117,,,D*49
$GPGGA,210155.000,3037.7327,N,09628.9153,W,2,10,0.86,73.8,M,-23.2,M,0000,0000*6F
$GPGSA,A,3,10,32,25,14,21,31,27,08,18,24,,,1.51,0.86,1.24*0F
$GPGSV,3,1,12,10,63,011,32,32,61,286,40,18,54,075,31,51,52,200,36*7F
$GPGSV,3,2,12,14,47,260,34,21,33,163,33,24,26,047,33,27,17,252,32*7F
$GPGSV,3,3,12,31,16,195,29,08,12,287,33,25,06,127,25,12,04,092,36*74
$GPRMC,210155.000,A,3037.7327,N,09628.9153,W,0.06,17.09,101117,,,D*48
$GPGGA,210156.000,3037.7327,N,09628.9153,W,2,10,0.86,73.8,M,-23.2,M,0000,0000*6C
$GPGSA,A,3,10,32,25,14,21,31,27,08,18,24,,,1.51,0.86,1.24*0F
$GPGSV,3,1,12,10,63,011,32,32,61,286,40,18,54,075,31,51,52,200,36*7F
$GPGSV,3,2,12,14,47,260,34,21,33,163,33,24,26,047,33,27,17,252,32*7F
$GPGSV,3,3,12,31,16,195,29,08,12,287,33,25,06,127,25,12,04,092,36*74
$GPRMC,210156.000,A,3037.7327,N,09628.9153,W,0.03,17.09,101117,,,D*4E
$GPGGA,210157.000,3037.7327,N,09628.9153,W,2,10,0.86,73.8,M,-23.2,M,0000,0000*6D
$GPGSA,A,3,10,32,25,14,21,31,27,08,18,24,,,1.51,0.86,1.24*0F
$GPGSV,3,1,12,10,63,011,31,32,61,286,39,18,54,075,32,51,52,200,35*72
$GPGSV,3,2,12,14,47,260,34,21,33,163,26,24,26,047,34,27,17,252,31*7F
$GPGSV,3,3,12,31,16,195,29,08,12,287,33,25,06,127,25,12,04,092,35*77
$GPRMC,210157.000,A,3037.7327,N,09628.9153,W,0.06,17.09,101117,,,D*4A
$GPGGA,210158.000,3037.7327,N,09628.9153,W,2,10,0.86,73.8,M,-23.2,M,0000,0000*62
$GPGSA,A,3,10,32,25,14,21,31,27,08,18,24,,,1.51,0.86,1.24*0F
$GPGSV,3,1,12,10,63,011,32,32,61,286,39,18,54,075,33,51,52,200,36*73
$GPGSV,3,2,12,14,48,261,35,21,33,163,28,24,26,047,35,27,17,252,32*7C
$GPGSV,3,3,12,31,16,195,31,08,12,287,34,25,06,127,25,12,04,092,36*7A
$GPRMC,210158.000,A,3037.7327,N,09628.9153,W,0.03,17.09,101117,,,D*40
$GPGGA,210159.000,3037.7327,N,09628.9153,W,2,10,0.86,73.8,M,-23.2,M,0000,0000*63
$GPGSA,A,3,10,32,25,14,21,31,27,08,18,24,,,1.51,0.86,1.24*0F
$GPGSV,3,1,12,10,63,011,31,32,61,286,40,18,54,075,32,51,52,200,29*71
$GPGSV,3,2,12,14,48,261,35,21,33,163,27,24,26,047,33,27,17,252,31*76
$GPGSV,3,3,12,31,16,195,32,08,12,287,35,25,06,127,24,12,04,092,34*7B
$GPRMC,210159.000,A,3037.7327,N,09628.9153,W,0.05,17.09,101117,,,D*47
$GPGGA,210200.000,3037.7327,N,09628.9153,W,2,10,0.86,73.8,M,-23.2,M,0000,0000*6C
$GPGSA,A,3,10,32,25,14,21,31,27,08,18,24,,,1.51,0.86,1.24*0F
$GPGSV,3,1,12,10,63,011,32,32,61,286,40,18,54,075,32,51,52,200,31*7B
$GPGSV,3,2,12,14,48,261,35,21,33,163,28,24,26,047,33,27,17,252,30*78
$GPGSV,3,3,12,31,16,195,33,08,12,287,37,25,06,127,26,12,04,092,41*78
$GPRMC,210200.000,A,3037.7327,N,09628.9153,W,0.14,17.09,101117,,,D*48
$GPGGA,210201.000,3037.7328,N,09628.9153,W,2,10,0.86,73.8,M,-23.2,M,0000,0000*62
$GPGSA,A,3,10,32,25,14,21,31,27,08,18,24,,,1.51,0.86,1.24*0F
$GPGSV,3,1,12,10,63,011,34,32,61,286,40,18,54,075,31,51,52,200,32*7D
$GPGSV,3,2,12,14,48,261,35,21,33,163,37,24,26,047,33,27,17,252,31*77
$GPGSV,3,3,12,31,16,195,32,08,12,287,35,25,06,127,25,12,04,092,28*77
$GPRMC,210201.000,A,3037.7328,N,09628.9153,W,1.06,3.64,101117,,,D*7A
$GPGGA,210202.000,3037.7333,N,09628.9155,W,2,9,0.94,74.0,M,-23.2,M,0000,0000*59
$GPGSA,A,3,10,32,14,21,31,27,08,18,24,,,,1.72,0.94,1.44*0C
$GPGSV,3,1,12,10,63,011,36,32,61,286,39,18,54,076,30,51,52,200,40*76
$GPGSV,3,2,12,14,48,261,36,21,33,163,36,24,26,047,33,27,17,252,29*7C
$GPGSV,3,3,12,31,16,195,32,08,12,287,20,25,06,127,17,12,04,092,28*72
$GPRMC,210202.000,A,3037.7333,N,09628.9155,W,1.67,3.50,101117,,,D*75
$GPGGA,210203.000,3037.7340,N,09628.9155,W,2,10,0.86,74.2,M,-23.2,M,0000,0000*65
$GPGSA,A,3,10,32,25,14,21,31,27,08,18,24,,,1.51,0.86,1.24*0F
$GPGSV,3,1,12,10,63,011,37,32,61,286,39,18,54,076,30,51,52,200,40*77
$GPGSV,3,2,12,14,48,261,37,21,33,163,35,24,26,047,34,27,17,252,29*79
$GPGSV,3,3,12,31,16,195,31,08,12,287,20,25,06,127,19,12,04,092,26*71
$GPRMC,210203.000,A,3037.7340,N,09628.9155,W,2.64,1.38,101117,,,D*7C
$GPGGA,210204.000,3037.7348,N,09628.9156,W,2,9,1.04,74.4,M,-23.2,M,0000,0000*5C
$GPGSA,A,3,10,32,25,14,21,31,27,18,24,,,,1.88,1.04,1.56*0D
$GPGSV,3,1,12,10,63,011,37,32,61,286,39,18,54,076,30,51,52,200,40*77
$GPGSV,3,2,12,14,48,261,38,21,33,163,34,24,26,047,34,27,17,252,29*77
$GPGSV,3,3,12,31,16,195,31,08,12,287,19,25,06,127,21,12,04,092,24*72
$GPRMC,210204.000,A,3037.7348,N,09628.9156,W,2.95,2.03,101117,,,D*75
$GPGGA,210205.000,3037.7359,N,09628.9157,W,2,8,1.08,74.5,M,-23.2,M,0000,0000*50
$GPGSA,A,3,10,32,25,14,21,31,27,24,,,,,2.02,1.08,1.71*0C
$GPGSV,3,1,12,10,63,011,38,32,61,286,40,18,54,076,20,51,52,200,40*77
$GPGSV,3,2,12,14,48,261,38,21,33,163,32,24,26,047,33,27,17,252,28*77
$GPGSV,3,3,12,31,16,195,30,08,12,287,19,25,06,127,22,12,04,092,24*70
$GPRMC,210205.000,A,3037.7359,N,09628.9157,W,3.53,2.03,101117,,,D*7E
$GPGGA,210206.000,3037.7368,N,09628.9159,W,2,9,1.04,74.7,M,-23.2,M,0000,0000*50
$GPGSA,A,3,10,32,25,14,21,31,27,18,24,,,,1.88,1.04,1.56*0D
$GPGSV,3,1,12,10,63,011,39,32,61,286,41,18,54,076,21,51,52,200,41*77
$GPGSV,3,2,12,14,48,261,39,21,33,163,31,24,26,047,34,27,17,252,28*72
$GPGSV,3,3,12,31,16,195,29,08,12,287,19,25,06,127,23,12,04,092,*7F
$GPRMC,210206.000,A,3037.7368,N,09628.9159,W,3.49,1.74,101117,,,D*79
$GPGGA,210207.000,3037.7381,N,09628.9162,W,2,8,1.08,75.0,M,-23.2,M,0000,0000*55
$GPGSA,A,3,10,32,25,14,21,31,27,24,,,,,2.02,1.08,1.71*0C
$GPGSV,3,1,12,10,63,011,39,32,61,286,41,18,54,076,20,51,52,200,41*76
$GPGSV,3,2,12,14,48,261,40,21,33,163,30,24,26,047,34,27,17,252,29*7C
$GPGSV,3,3,12,31,16,195,29,08,12,287,19,25,06,127,31,12,04,092,*7C
$GPRMC,210207.000,A,3037.7381,N,09628.9162,W,3.93,1.74,101117,,,D*70
$GPGGA,210208.000,3037.7393,N,09628.9165,W,2,9,0.89,75.3,M,-23.2,M,0000,0000*54
$GPGSA,A,3,10,32,25,14,21,31,27,08,24,,,,1.58,0.89,1.31*04
$GPGSV,3,1,12,10,63,011,39,32,61,286,42,18,54,076,20,51,52,200,41*75
$GPGSV,3,2,12,14,48,261,41,21,33,163,30,24,26,047,35,27,17,252,30*74
$GPGSV,3,3,12,31,16,195,30,08,12,287,29,25,06,127,30,12,04,092,21*75
$GPRMC,210208.000,A,3037.7393,N,09628.9165,W,4.09,1.74,101117,,,D*7F
$GPGGA,210209.000,3037.7407,N,09628.9166,W,2,9,0.89,75.6,M,-23.2,M,0000,0000*59
$GPGSA,A,3,10,32,25,14,21,31,27,08,24,,,,1.58,0.89,1.31*04
$GPGSV,3,1,12,10,63,011,39,32,61,286,42,18,54,076,21,51,52,200,41*74
$GPGSV,3,2,12,14,48,261,42,21,33,163,30,24,26,047,36,27,17,252,31*75
$GPGSV,3,3,12,31,16,195,31,08,12,287,29,25,06,126,31,12,04,092,19*7F
$GPRMC,210209.000,A,3037.7407,N,09628.9166,W,4.13,357.31,101117,,,D*7D
$GPGGA,210210.000,3037.7419,N,09628.9168,W,2,9,0.89,75.7,M,-23.2,M,0000,0000*51
$GPGSA,A,3,10,32,25,14,21,31,27,08,24,,,,1.58,0.89,1.31*04
$GPGSV,3,1,12,10,63,011,39,32,61,286,42,18,54,076,21,51,52,200,41*74
$GPGSV,3,2,12,14,48,261,42,21,33,163,29,24,26,047,37,27,17,252,32*7F
$GPGSV,3,3,12,31,16,195,32,08,12,287,30,25,06,126,30,12,04,092,19*75
$GPRMC,210210.000,A,3037.7419,N,09628.9168,W,4.18,357.17,101117,,,D*7B
$GPGGA,210211.000,3037.7433,N,09628.9169,W,2,10,0.86,75.7,M,-23.2,M,0000,0000*6E
$GPGSA,A,3,10,32,25,14,21,31,27,08,18,24,,,1.51,0.86,1.24*0F
$GPGSV,3,1,12,10,63,011,39,32,61,286,42,18,54,076,22,51,52,200,41*77
$GPGSV,3,2,12,14,48,261,42,21,33,163,28,24,26,047,38,27,16,252,33*71
$GPGSV,3,3,12,31,16,195,32,08,12,287,30,25,06,126,30,12,04,092,19*75
$GPRMC,210211.000,A,3037.7433,N,09628.9169,W,4.18,357.68,101117,,,D*7B
$GPGGA,210212.000,3037.7444,N,09628.9170,W,2,10,0.86,75.9,M,-23.2,M,0000,0000*6B
$GPGSA,A,3,10,32,25,14,21,31,27,08,18,24,,,1.51,0.86,1.24*0F
$GPGSV,3,1,12,10,63,011,39,32,61,286,42,18,54,076,23,51,52,200,41*76
$GPGSV,3,2,12,14,48,261,42,21,33,163,27,24,26,047,38,27,16,252,33*7E
$GPGSV,3,3,12,31,16,195,32,08,12,287,31,25,06,126,30,12,04,092,21*7F
$GPRMC,210212.000,A,3037.7444,N,09628.9170,W,4.01,358.93,101117,,,D*73
$GPGGA,210213.000,3037.7455,N,09628.9169,W,2,10,0.86,76.2,M,-23.2,M,0000,0000*6A
$GPGSA,A,3,10,32,25,14,21,31,27,08,18,24,,,1.51,0.86,1.24*0F
$GPGSV,3,1,12,10,63,011,39,32,61,286,42,18,54,076,24,51,52,200,41*71
$GPGSV,3,2,12,14,48,261,42,21,33,163,26,24,26,047,37,27,16,252,33*70
$GPGSV,3,3,12,31,16,195,32,08,12,287,31,25,06,126,29,12,04,092,23*75
$GPRMC,210213.000,A,3037.7455,N,09628.9169,W,3.98,359.85,101117,,,D*7B
$GPGGA,210214.000,3037.7467,N,09628.9168,W,2,10,0.86,76.5,M,-23.2,M,0000,0000*6A
$GPGSA,A,3,10,32,25,14,21,31,27,08,18,24,,,1.51,0.86,1.24*0F
$GPGSV,3,1,12,10,63,011,39,32,61,286,42,18,54,076,25,51,52,200,41*70
$GPGSV,3,2,12,14,48,261,42,21,33,163,25,24,26,047,37,27,16,252,33*73
$GPGSV,3,3,12,31,16,195,32,08,12,287,31,25,06,126,28,12,04,092,23*74
$GPRMC,210214.000,A,3037.7467,N,09628.9168,W,3.93,359.24,101117,,,D*7C
$GPGGA,210215.000,3037.7477,N,09628.9169,W,2,10,0.86,76.6,M,-23.2,M,0000,0000*68
$GPGSA,A,3,10,32,25,14,21,31,27,08,18,24,,,1.51,0.86,1.24*0F
$GPGSV,3,1,12,10,63,011,39,32,61,286,42,18,54,076,33,51,52,200,40*76
$GPGSV,3,2,12,14,48,261,42,21,33,163,24,24,26,047,38,27,16,252,33*7D
$GPGSV,3,3,12,31,16,195,33,08,12,287,31,25,06,126,28,12,04,092,23*75
$GPRMC,210215.000,A,3037.7477,N,09628.9169,W,3.72,359.40,101117,,,D*70
$GPGGA,210216.000,3037.7489,N,09628.9169,W,2,10,0.86,76.7,M,-23.2,M,0000,0000*6B
$GPGSA,A,3,10,32,25,14,21,31,27,08,18,24,,,1.51,0.86,1.24*0F
$GPGSV,3,1,12,10,63,011,38,32,61,287,41,18,54,076,34,51,52,200,40*72
$GPGSV,3,2,12,14,48,261,42,21,33,163,24,24,26,047,39,27,16,252,33*7C
$GPGSV,3,3,12,31,16,195,33,08,12,287,31,25,06,126,27,12,04,092,22*7B
$GPRMC,210216.000,A,3037.7489,N,09628.9169,W,3.73,358.63,101117,,,D*73
$GPGGA,210217.000,3037.7503,N,09628.9172,W,2,10,0.86,76.5,M,-23.2,M,0000,0000*61
$GPGSA,A,3,10,32,25,14,21,31,27,08,18,24,,,1.51,0.86,1.24*0F
$GPGSV,3,1,12,10,63,011,37,32,61,287,42,18,54,076,35,51,52,200,40*7F
$GPGSV,3,2,12,14,48,261,41,21,33,163,32,24,26,047,39,27,16,252,31*7A
$GPGSV,3,3,12,31,16,195,32,08,12,287,30,25,06,126,26,12,04,092,22*7A
$GPRMC,210217.000,A,3037.7503,N,09628.9172,W,3.54,358.63,101117,,,D*7E
$GPGGA,210218.000,3037.7513,N,09628.9170,W,2,10,0.86,76.8,M,-23.2,M,0000,0000*60
$GPGSA,A,3,10,32,25,14,21,31,27,08,18,24,,,1.51,0.86,1.24*0F
$GPGSV,3,1,12,10,63,011,35,32,61,287,42,18,54,076,34,51,52,200,33*78
$GPGSV,3,2,12,14,48,261,39,21,33,163,24,24,26,047,39,27,16,252,32*71
$GPGSV,3,3,12,31,16,195,30,08,12,287,29,25,06,126,26,12,04,092,22*70
$GPRMC,210218.000,A,3037.7513,N,09628.9170,W,3.87,357.99,101117,,,D*76
$GPGGA,210219.000,3037.7520,N,09628.9170,W,2,10,0.86,77.2,M,-23.2,M,0000,0000*6A
$GPGSA,A,3,10,32,25,14,21,31,27,08,18,24,,,1.51,0.86,1.24*0F
$GPGSV,3,1,12,10,63,011,34,32,61,287,42,18,54,076,34,51,52,200,33*79
$GPGSV,3,2,12,14,48,261,39,21,33,163,24,24,26,047,39,27,16,252,33*70
$GPGSV,3,3,12,31,16,195,31,08,12,287,30,25,06,126,25,12,04,092,21*79
$GPRMC,210219.000,A,3037.7520,N,09628.9170,W,3.51,359.32,101117,,,D*73
$GPGGA,210220.000,3037.7527,N,09628.9168,W,2,10,0.86,77.9,M,-23.2,M,0000,0000*65
$GPGSA,A,3,10,32,25,14,21,31,27,08,18,24,,,1.51,0.86,1.24*0F
$GPGSV,3,1,12,10,63,011,34,32,61,287,41,18,54,076,34,51,52,200,33*7A
$GPGSV,3,2,12,14,48,261,39,21,33,163,24,24,26,047,39,27,16,252,34*77
$GPGSV,3,3,12,31,16,195,31,08,12,287,31,25,06,126,24,12,04,092,21*79
$GPRMC,210220.000,A,3037.7527,N,09628.9168,W,3.24,359.32,101117,,,D*75
$GPGGA,210221.000,3037.7536,N,09628.9170,W,2,10,0.86,77.9,M,-23.2,M,0000,0000*6D
$GPGSA,A,3,10,32,25,14,21,31,27,08,18,24,,,1.51,0.86,1.24*0F
$GPGSV,3,1,12,10,63,011,33,32,61,287,41,18,54,076,34,51,52,200,33*7D
$GPGSV,3,2,12,14,48,261,39,21,33,163,23,24,26,047,39,27,16,252,34*70
$GPGSV,3,3,12,31,16,195,32,08,12,287,31,25,06,126,24,12,04,092,21*7A
$GPRMC,210221.000,A,3037.7536,N,09628.9170,W,3.24,1.54,101117,,,D*73
$GPGGA,210222.000,3037.7545,N,09628.9172,W,2,10,0.86,77.7,M,-23.2,M,0000,0000*66
$GPGSA,A,3,10,32,25,14,21,31,27,08,18,24,,,1.51,0.86,1.24*0F
$GPGSV,3,1,12,10,63,011,34,32,61,287,40,18,54,076,34,51,52,200,34*7C
$GPGSV,3,2,12,14,48,261,39,21,33,163,22,24,26,047,40,27,16,252,34*7F
$GPGSV,3,3,12,31,16,195,34,08,12,287,30,25,06,126,23,12,04,092,23*78
$GPRMC,210222.000,A,3037.7545,N,09628.9172,W,3.29,1.54,101117,,,D*7B
$GPGGA,210223.000,3037.7556,N,09628.9173,W,2,10,0.86,77.5,M,-23.2,M,0000,0000*66
$GPGSA,A,3,10,32,25,14,21,31,27,08,18,24,,,1.51,0.86,1.24*0F
$GPGSV,3,1,12,10,63,011,35,32,61,287,30,18,54,076,32,51,52,200,27*7E
$GPGSV,3,2,12,14,48,261,37,21,33,163,23,24,26,047,38,27,16,252,18*71
$GPGSV,3,3,12,31,16,195,17,08,12,287,29,25,06,126,23,12,04,092,24*76
$GPRMC,210223.000,A,3037.7556,N,09628.9173,W,3.59,1.54,101117,,,D*7E
$GPGGA,210224.000,3037.7565,N,09628.9173,W,2,10,0.86,77.4,M,-23.2,M,0000,0000*60
$GPGSA,A,3,10,32,25,14,21,31,27,08,18,24,,,1.51,0.86,1.24*0F
$GPGSV,3,1,12,10,63,011,35,32,61,287,41,18,54,076,31,51,52,200,27*7B
$GPGSV,3,2,12,14,48,261,38,21,33,163,24,24,26,047,38,27,16,252,18*79
$GPGSV,3,3,12,31,16,195,31,08,12,287,30,25,06,126,24,12,04,092,31*79
$GPRMC,210224.000,A,3037.7565,N,09628.9173,W,3.12,3.36,101117,,,D*70
$GPGGA,210225.000,3037.7573,N,09628.9169,W,2,10,0.86,77.2,M,-23.2,M,0000,0000*6B
$GPGSA,A,3,10,32,25,14,21,31,27,08,18,24,,,1.51,0.86,1.24*0F
$GPGSV,3,1,12,10,63,011,37,32,61,287,41,18,54,076,30,51,52,200,28*77
$GPGSV,3,2,12,14,48,261,30,21,33,163,25,24,26,047,39,27,16,252,32*79
$GPGSV,3,3,12,31,16,195,24,08,12,287,31,25,06,126,24,12,04,092,32*7F
$GPRMC,210225.000,A,3037.7573,N,09628.9169,W,3.32,4.10,101117,,,D*7C
$GPGGA,210226.000,3037.7585,N,09628.9170,W,2,10,0.86,76.6,M,-23.2,M,0000,0000*6C
$GPGSA,A,3,10,32,25,14,21,31,27,08,18,24,,,1.51,0.86,1.24*0F
$GPGSV,3,1,12,10,63,012,37,32,61,287,41,18,54,076,29,51,52,200,28*7C
$GPGSV,3,2,12,14,48,261,29,21,33,163,26,24,26,047,39,27,16,252,30*70
$GPGSV,3,3,12,31,16,195,23,08,12,287,32,25,06,126,24,12,04,092,33*7A
$GPRMC,210226.000,A,3037.7585,N,09628.9170,W,3.40,2.40,101117,,,D*78
$GPGGA,210227.000,3037.7594,N,09628.9170,W,2,10,0.86,76.4,M,-23.2,M,0000,0000*6F
$GPGSA,A,3,10,32,25,14,21,31,27,08,18,24,,,1.51,0.86,1.24*0F
$GPGSV,3,1,12,10,63,012,37,32,61,287,41,18,54,076,28,51,52,200,28*7D
$GPGSV,3,2,12,14,48,261,27,21,33,163,27,24,26,047,39,27,16,252,29*77
$GPGSV,3,3,12,31,16,195,24,08,12,287,33,25,06,126,24,12,04,092,34*7B
$GPRMC,210227.000,A,3037.7594,N,09628.9170,W,2.95,2.33,101117,,,D*74
$GPGGA,210228.000,3037.7601,N,09628.9169,W,2,10,0.86,76.1,M,-23.2,M,0000,0000*62
$GPGSA,A,3,10,32,25,14,21,31,27,08,18,24,,,1.51,0.86,1.24*0F
$GPGSV,3,1,12,10,63,012,37,32,61,287,41,18,54,076,28,51,52,200,28*7D
$GPGSV,3,2,12,14,48,261,27,21,33,163,27,24,26,047,39,27,16,252,29*77
$GPGSV,3,3,12,31,16,195,24,08,12,287,34,25,06,126,23,12,04,092,34*7B
$GPRMC,210228.000,A,3037.7601,N,09628.9169,W,2.70,2.57,101117,,,D*75
$GPGGA,210229.000,3037.7608,N,09628.9168,W,2,10,0.86,76.2,M,-23.2,M,0000,0000*68
$GPGSA,A,3,10,32,25,14,21,31,27,08,18,24,,,1.51,0.86,1.24*0F
$GPGSV,3,1,12,10,63,012,37,32,61,287,41,18,54,076,29,51,52,200,28*7C
$GPGSV,3,2,12,14,48,261,27,21,33,163,28,24,26,047,39,27,16,252,29*78
$GPGSV,3,3,12,31,16,195,25,08,12,287,35,25,06,126,23,12,04,092,34*7B
$GPRMC,210229.000,A,3037.7608,N,09628.9168,W,2.47,3.98,101117,,,D*7A
$GPGGA,210230.000,3037.7617,N,09628.9167,W,2,10,0.86,76.2,M,-23.2,M,0000,0000*61
$GPGSA,A,3,10,32,25,14,21,31,27,08,18,24,,,1.51,0.86,1.24*0F
$GPGSV,3,1,12,10,63,012,36,32,61,287,40,18,54,076,31,51,52,200,28*75
$GPGSV,3,2,12,14,48,261,29,21,33,163,28,24,26,047,39,27,16,252,28*77
$GPGSV,3,3,12,31,16,195,27,08,12,287,34,25,06,126,24,12,04,092,42*7E
$GPRMC,210230.000,A,3037.7617,N,09628.9167,W,2.64,5.37,101117,,,D*71
$GPGGA,210231.000,3037.7624,N,09628.9165,W,2,10,0.86,76.2,M,-23.2,M,0000,0000*62
$GPGSA,A,3,10,32,25,14,21,31,27,08,18,24,,,1.51,0.86,1.24*0F
$GPGSV,3,1,12,10,63,012,29,32,61,287,39,18,54,076,38,51,52,200,29*7D
$GPGSV,3,2,12,14,48,261,41,21,33,163,37,24,26,047,40,27,16,252,29*78
